[
    {
    "name": "Hyderabad",
    "type": "Historical & Heritage",
    "description": "Bhagya Nagaram",
    "state": "Telangana",
    "duration": 5,
    "price": 125,
    "latitude": 17.360589,
    "longitude": 78.4740613,
    "mapsLink": "https://www.google.com/maps?q=Hyderabad",
    "region": "south"
  },
{
  "name": "Shimla",
  "type": "Hill Station",
  "description": "Queen of Hills",
  "state": "Himachal Pradesh",
  "duration": 4,
  "price": 100,
  "latitude": 31.1041526,
  "longitude": 77.1709729,
  "mapsLink": "https://www.google.com/maps?q=Shimla",
  "region": "north"
},
{
  "name": "Ooty",
  "type": "Hill Station",
  "description": "Queen of Hill Stations",
  "state": "Tamil Nadu",
  "duration": 3,
  "price": 75,
  "latitude": 11.4126769,
  "longitude": 76.7030504,
  "mapsLink": "https://www.google.com/maps?q=Ooty",
  "region": "south"
},
{
  "name": "Munnar",
  "type": "Hill Station",
  "description": "Fascinating Hill Station of Kerala",
  "state": "Kerala",
  "duration": 5,
  "latitude": 10.0869959,
  "longitude": 77.0600915,
  "mapsLink": "https://www.google.com/maps?q=Munnar",
  "region": "south"
},
{
  "name": "Kedarnath",
  "type": "Pilgrimage",
  "description": "Kedarnath Attractions",
  "state": "Uttarakhand",
  "duration": 4,
  "latitude": 30.7345609,
  "longitude": 79.0673204,
  "mapsLink": "https://www.google.com/maps?q=Kedarnath",
  "region": "north"
},
{
  "name": "Manali",
  "type": "Hill Station",
  "description": "Valley of the Gods",
  "state": "Himachal Pradesh",
  "duration": 4,
  "latitude": 32.26309405,
  "longitude": 77.18812183241408,
  "mapsLink": "https://www.google.com/maps?q=Manali",
  "region": "north"
},
{
  "name": "Amritsar",
  "type": "Historical & Heritage",
  "description": "The Pool of Nectar",
  "state": "Punjab",
  "latitude": 31.6343083,
  "longitude": 74.8736788,
  "mapsLink": "https://www.google.com/maps?q=Amritsar",
  "region": "north"
},
{
  "name": "Kodaikanal",
  "type": "Hill Station",
  "description": "Princess of Hill Stations",
  "state": "Tamil Nadu",
  "duration": 3,
  "latitude": 10.273275349999999,
  "longitude": 77.51160822153315,
  "mapsLink": "https://www.google.com/maps?q=Kodaikanal",
  "region": "south"
},
{
  "name": "Andaman Islands",
  "type": "Beach",
  "description": "Andaman Islands Attractions",
  "state": "Andaman & Nicobar Islands",
  "duration": 6,
  "price": 200,
  "latitude": 12.61123865,
  "longitude": 92.83165406414926,
  "mapsLink": "https://www.google.com/maps?q=Andaman+Islands",
  "region": "east"
},
{
  "name": "Pondicherry",
  "type": "Beach",
  "description": "Pondicherry Attractions",
  "state": "Puducherry",
  "duration": 3,
  "latitude": 11.9340568,
  "longitude": 79.8306447,
  "mapsLink": "https://www.google.com/maps?q=Pondicherry",
  "region": "south"
},
{
  "name": "Nainital",
  "type": "Hill Station",
  "description": "Foothills of Himalayas",
  "state": "Uttarakhand",
  "duration": 4,
  "latitude": 29.29478295,
  "longitude": 79.41548093726253,
  "mapsLink": "https://www.google.com/maps?q=Nainital",
  "region": "north"
},
{
  "name": "Kanchipuram",
  "type": "Historical & Heritage",
  "description": "Kanchipuram Attractions",
  "state": "Tamil Nadu",
  "latitude": 12.9647163,
  "longitude": 79.9839686,
  "mapsLink": "https://www.google.com/maps?q=Kanchipuram"
},
{
  "name": "Jodhpur",
  "type": "Historical & Heritage",
  "description": "The Sun City",
  "state": "Rajasthan",
  "latitude": 26.2967719,
  "longitude": 73.0351433,
  "mapsLink": "https://www.google.com/maps?q=Jodhpur"
},
{
  "name": "Ahmedabad",
  "type": "Historical & Heritage",
  "description": "Ahmedabad Attractions",
  "state": "Gujarat",
  "latitude": 23.0216238,
  "longitude": 72.5797068,
  "mapsLink": "https://www.google.com/maps?q=Ahmedabad"
},
{
  "name": "Khajuraho",
  "type": "Historical & Heritage",
  "description": "Khajuraho Attractions",
  "state": "Madhya Pradesh",
  "latitude": 24.8515132,
  "longitude": 79.9259786,
  "mapsLink": "https://www.google.com/maps?q=Khajuraho"
},
{
  "name": "Konark",
  "type": "Historical & Heritage",
  "description": "Konark Attractions",
  "state": "Odisha",
  "latitude": 19.90742915,
  "longitude": 86.14201945385827,
  "mapsLink": "https://www.google.com/maps?q=Konark"
},
{
  "name": "Mahabalipuram",
  "type": "Historical & Heritage",
  "description": "Mahabalipuram Attractions",
  "state": "Tamil Nadu",
  "latitude": 12.6195981,
  "longitude": 80.1936497,
  "mapsLink": "https://www.google.com/maps?q=Mahabalipuram"
},
{
  "name": "Jaisalmer",
  "type": "Historical & Heritage",
  "description": "The Heart of Thar Desert",
  "state": "Rajasthan",
  "latitude": 27.02801615,
  "longitude": 70.7785056232077,
  "mapsLink": "https://www.google.com/maps?q=Jaisalmer"
},
{
  "name": "Thanjavur",
  "type": "Historical & Heritage",
  "description": "Thanjavur Attractions",
  "state": "Tamil Nadu",
  "latitude": 10.7860267,
  "longitude": 79.1381497,
  "mapsLink": "https://www.google.com/maps?q=Thanjavur"
},
{
  "name": "Rann Of Kutch",
  "type": "Historical & Heritage",
  "description": "Rann Of Kutch Attractions",
  "state": "Gujarat",
  "latitude": 23.790559350000002,
  "longitude": 70.49681598808152,
  "mapsLink": "https://www.google.com/maps?q=Rann+Of+Kutch"
},
{
  "name": "Tiruchirappalli",
  "type": "Historical & Heritage",
  "description": "Tiruchirappalli Attractions",
  "state": "Tamil Nadu",
  "latitude": 10.804973,
  "longitude": 78.6870296,
  "mapsLink": "https://www.google.com/maps?q=Tiruchirappalli"
},

  {
    "name": "Dandeli",
    "type": "Adventure / Trekking",
    "description": "Dandeli Attractions",
    "state": "Karnataka",
    "latitude": 15.2490284,
    "longitude": 74.6236037,
    "mapsLink": "https://www.google.com/maps?q=Dandeli",
    "region": "south",
    "duration": 3
  },
  {
    "name": "Panjim",
    "type": "City",
    "description": "Panjim Attractions",
    "state": "Goa",
    "latitude": 15.4989946,
    "longitude": 73.8282141,
    "mapsLink": "https://www.google.com/maps?q=Panjim",
    "region": "south"
  },
  {
    "name": "Bangalore",
    "type": "City",
    "description": "Garden City of India",
    "state": "Karnataka",
    "latitude": 12.9767936,
    "longitude": 77.590082,
    "mapsLink": "https://www.google.com/maps?q=Bangalore",
    "region": "south",
    "duration": 3
  },
  {
    "name": "Bhubaneswar",
    "type": "City",
    "description": "The City of Temples",
    "state": "Odisha",
    "latitude": 20.2602964,
    "longitude": 85.8394521,
    "mapsLink": "https://www.google.com/maps?q=Bhubaneswar",
    "region": "north"
  },
  {
    "name": "Guwahati",
    "type": "City",
    "description": "City of Eastern Light",
    "state": "Assam",
    "latitude": 26.1805978,
    "longitude": 91.753943,
    "mapsLink": "https://www.google.com/maps?q=Guwahati",
    "region": "north"
  },
  {
    "name": "Trivandrum",
    "type": "City",
    "description": "Trivandrum Attractions",
    "state": "Kerala",
    "latitude": 8.4882267,
    "longitude": 76.947551,
    "mapsLink": "https://www.google.com/maps?q=Trivandrum",
    "region": "south"
  },
  {
    "name": "Varanasi",
    "type": "Pilgrimage",
    "description": "The holy city of Varanasi",
    "state": "Uttar Pradesh",
    "latitude": 25.3356491,
    "longitude": 83.0076292,
    "mapsLink": "https://www.google.com/maps?q=Varanasi",
    "region": "north",
    "duration": 3
  },
  {
    "name": "Haridwar",
    "type": "Pilgrimage",
    "description": "Haridwar Attractions",
    "state": "Uttarakhand",
    "latitude": 29.91235135,
    "longitude": 78.00871782398349,
    "mapsLink": "https://www.google.com/maps?q=Haridwar",
    "region": "north"
  },
  {
    "name": "Tirupati",
    "type": "Pilgrimage",
    "description": "Tirupati Attractions",
    "state": "Andhra Pradesh",
    "latitude": 13.77928955,
    "longitude": 79.83512262283737,
    "mapsLink": "https://www.google.com/maps?q=Tirupati",
    "region": "south"
  },
  {
    "name": "Shirdi",
    "type": "Pilgrimage",
    "description": "Shirdi Attractions",
    "state": "Maharashtra",
    "latitude": 19.7668121,
    "longitude": 74.4754386,
    "mapsLink": "https://www.google.com/maps?q=Shirdi",
    "region": "south"
  },
  {
    "name": "Somnath",
    "type": "Pilgrimage",
    "description": "Somnath Attractions",
    "state": "Gujarat",
    "latitude": 20.8907001,
    "longitude": 70.4025266,
    "mapsLink": "https://www.google.com/maps?q=Somnath",
    "region": "west"
  }
]